[{"citycode":"0879","adcode":"530802","name":"\u601d\u8305\u533a","level":"district","center_N":22.776595,"center_J":100.973227,"center_lng":100.973227,"center_lat":22.776595},{"citycode":"0879","adcode":"530821","name":"\u5b81\u6d31\u54c8\u5c3c\u65cf\u5f5d\u65cf\u81ea\u6cbb\u53bf","level":"district","center_N":23.062507,"center_J":101.04524,"center_lng":101.04524,"center_lat":23.062507},{"citycode":"0879","adcode":"530822","name":"\u58a8\u6c5f\u54c8\u5c3c\u65cf\u81ea\u6cbb\u53bf","level":"district","center_N":23.428165,"center_J":101.687606,"center_lng":101.687606,"center_lat":23.428165},{"citycode":"0879","adcode":"530823","name":"\u666f\u4e1c\u5f5d\u65cf\u81ea\u6cbb\u53bf","level":"district","center_N":24.448523,"center_J":100.840011,"center_lng":100.840011,"center_lat":24.448523},{"citycode":"0879","adcode":"530824","name":"\u666f\u8c37\u50a3\u65cf\u5f5d\u65cf\u81ea\u6cbb\u53bf","level":"district","center_N":23.500278,"center_J":100.701425,"center_lng":100.701425,"center_lat":23.500278},{"citycode":"0879","adcode":"530825","name":"\u9547\u6c85\u5f5d\u65cf\u54c8\u5c3c\u65cf\u62c9\u795c\u65cf\u81ea\u6cbb\u53bf","level":"district","center_N":24.005712,"center_J":101.108512,"center_lng":101.108512,"center_lat":24.005712},{"citycode":"0879","adcode":"530826","name":"\u6c5f\u57ce\u54c8\u5c3c\u65cf\u5f5d\u65cf\u81ea\u6cbb\u53bf","level":"district","center_N":22.58336,"center_J":101.859144,"center_lng":101.859144,"center_lat":22.58336},{"citycode":"0879","adcode":"530827","name":"\u5b5f\u8fde\u50a3\u65cf\u62c9\u795c\u65cf\u4f64\u65cf\u81ea\u6cbb\u53bf","level":"district","center_N":22.325924,"center_J":99.585406,"center_lng":99.585406,"center_lat":22.325924},{"citycode":"0879","adcode":"530828","name":"\u6f9c\u6ca7\u62c9\u795c\u65cf\u81ea\u6cbb\u53bf","level":"district","center_N":22.553083,"center_J":99.931201,"center_lng":99.931201,"center_lat":22.553083},{"citycode":"0879","adcode":"530829","name":"\u897f\u76df\u4f64\u65cf\u81ea\u6cbb\u53bf","level":"district","center_N":22.644423,"center_J":99.594372,"center_lng":99.594372,"center_lat":22.644423}]