[{"citycode":"0532","adcode":"370202","name":"\u516b\u5927\u5173\u8857\u9053","level":"street","center_N":0,"center_J":0,"center_lng":120.35049,"center_lat":36.058087},{"citycode":"0532","adcode":"370202","name":"\u6c5f\u82cf\u8def\u8857\u9053","level":"street","center_N":0,"center_J":0,"center_lng":120.336956,"center_lat":36.068851},{"citycode":"0532","adcode":"370202","name":"\u89c2\u6d77\u8def\u8857\u9053","level":"street","center_N":0,"center_J":0,"center_lng":120.322823,"center_lat":36.065069},{"citycode":"0532","adcode":"370202","name":"\u9999\u6e2f\u4e2d\u8def\u8857\u9053","level":"street","center_N":0,"center_J":0,"center_lng":120.386335,"center_lat":36.07343},{"citycode":"0532","adcode":"370202","name":"\u91d1\u53e3\u8def\u8857\u9053","level":"street","center_N":0,"center_J":0,"center_lng":120.331506,"center_lat":36.062542},{"citycode":"0532","adcode":"370202","name":"\u53f0\u897f\u8857\u9053","level":"street","center_N":0,"center_J":0,"center_lng":120.301551,"center_lat":36.063407},{"citycode":"0532","adcode":"370202","name":"\u516b\u5927\u5ce1\u8857\u9053","level":"street","center_N":0,"center_J":0,"center_lng":120.298161,"center_lat":36.056657},{"citycode":"0532","adcode":"370202","name":"\u73e0\u6d77\u8def\u8857\u9053","level":"street","center_N":0,"center_J":0,"center_lng":120.407955,"center_lat":36.061707},{"citycode":"0532","adcode":"370202","name":"\u91d1\u6e56\u8def\u8857\u9053","level":"street","center_N":0,"center_J":0,"center_lng":120.373423,"center_lat":36.08238},{"citycode":"0532","adcode":"370202","name":"\u516b\u5927\u6e56\u8857\u9053","level":"street","center_N":0,"center_J":0,"center_lng":120.389434,"center_lat":36.08002},{"citycode":"0532","adcode":"370202","name":"\u4e91\u5357\u8def\u8857\u9053","level":"street","center_N":0,"center_J":0,"center_lng":120.306011,"center_lat":36.06738},{"citycode":"0532","adcode":"370202","name":"\u4e2d\u5c71\u8def\u8857\u9053","level":"street","center_N":0,"center_J":0,"center_lng":120.322683,"center_lat":36.065409},{"citycode":"0532","adcode":"370202","name":"\u6e5b\u5c71\u8857\u9053","level":"street","center_N":0,"center_J":0,"center_lng":120.371652,"center_lat":36.063905},{"citycode":"0532","adcode":"370202","name":"\u91d1\u95e8\u8def\u8857\u9053","level":"street","center_N":0,"center_J":0,"center_lng":120.413246,"center_lat":36.071063}]