[{"citycode":"0971","adcode":"630100","name":"\u897f\u5b81\u5e02","level":"city","center_N":36.623178,"center_J":101.778916,"center_lng":101.778916,"center_lat":36.623178},{"citycode":"0972","adcode":"630200","name":"\u6d77\u4e1c\u5e02","level":"city","center_N":36.502916,"center_J":102.10327,"center_lng":102.10327,"center_lat":36.502916},{"citycode":"0970","adcode":"632200","name":"\u6d77\u5317\u85cf\u65cf\u81ea\u6cbb\u5dde","level":"city","center_N":36.959435,"center_J":100.901059,"center_lng":100.901059,"center_lat":36.959435},{"citycode":"0973","adcode":"632300","name":"\u9ec4\u5357\u85cf\u65cf\u81ea\u6cbb\u5dde","level":"city","center_N":35.517744,"center_J":102.019988,"center_lng":102.019988,"center_lat":35.517744},{"citycode":"0974","adcode":"632500","name":"\u6d77\u5357\u85cf\u65cf\u81ea\u6cbb\u5dde","level":"city","center_N":36.280353,"center_J":100.619542,"center_lng":100.619542,"center_lat":36.280353},{"citycode":"0975","adcode":"632600","name":"\u679c\u6d1b\u85cf\u65cf\u81ea\u6cbb\u5dde","level":"city","center_N":34.4736,"center_J":100.242143,"center_lng":100.242143,"center_lat":34.4736},{"citycode":"0976","adcode":"632700","name":"\u7389\u6811\u85cf\u65cf\u81ea\u6cbb\u5dde","level":"city","center_N":33.004049,"center_J":97.008522,"center_lng":97.008522,"center_lat":33.004049},{"citycode":"0977","adcode":"632800","name":"\u6d77\u897f\u8499\u53e4\u65cf\u85cf\u65cf\u81ea\u6cbb\u5dde","level":"city","center_N":37.374663,"center_J":97.370785,"center_lng":97.370785,"center_lat":37.374663}]