[{"citycode":"0472","adcode":"150204","name":"\u4e07\u9752\u8def\u8857\u9053","level":"street","center_N":0,"center_J":0,"center_lng":109.867854,"center_lat":40.64813},{"citycode":"0472","adcode":"150204","name":"\u5bcc\u5f3a\u8def\u8857\u9053","level":"street","center_N":0,"center_J":0,"center_lng":109.873183,"center_lat":40.67244},{"citycode":"0472","adcode":"150204","name":"\u4e07\u9752\u8857\u9053","level":"street","center_N":0,"center_J":0,"center_lng":109.867395,"center_lat":40.653927},{"citycode":"0472","adcode":"150204","name":"\u79d1\u5b66\u8def\u8857\u9053","level":"street","center_N":0,"center_J":0,"center_lng":109.852342,"center_lat":40.666144},{"citycode":"0472","adcode":"150204","name":"\u9752\u798f\u9547","level":"street","center_N":0,"center_J":0,"center_lng":109.916986,"center_lat":40.649395},{"citycode":"0472","adcode":"150204","name":"\u79d1\u5b66\u8def\u8857\u9053","level":"street","center_N":0,"center_J":0,"center_lng":109.863023,"center_lat":40.666281},{"citycode":"0472","adcode":"150204","name":"\u4e07\u9752\u8def\u8857\u9053","level":"street","center_N":0,"center_J":0,"center_lng":109.858067,"center_lat":40.654402},{"citycode":"0472","adcode":"150204","name":"\u5927\u8fde\u5f00\u53d1\u533a","level":"street","center_N":0,"center_J":0,"center_lng":109.876717,"center_lat":40.652619},{"citycode":"0472","adcode":"150204","name":"\u5e78\u798f\u8def\u8857\u9053","level":"street","center_N":0,"center_J":0,"center_lng":109.87785,"center_lat":40.665474},{"citycode":"0472","adcode":"150204","name":"\u9752\u5c71\u8def\u8857\u9053","level":"street","center_N":0,"center_J":0,"center_lng":109.895717,"center_lat":40.666871},{"citycode":"0472","adcode":"150204","name":"\u4e4c\u7d20\u56fe\u8857\u9053","level":"street","center_N":0,"center_J":0,"center_lng":109.952761,"center_lat":40.655444},{"citycode":"0472","adcode":"150204","name":"\u81ea\u7531\u8def\u8857\u9053","level":"street","center_N":0,"center_J":0,"center_lng":109.892086,"center_lat":40.664341}]