[{"citycode":"0469","adcode":"230505","name":"\u592a\u4fdd\u9547","level":"street","center_N":0,"center_J":0,"center_lng":131.240283,"center_lat":46.735492},{"citycode":"0469","adcode":"230505","name":"\u632f\u5174\u4e1c\u8def\u8857\u9053","level":"street","center_N":0,"center_J":0,"center_lng":131.350386,"center_lat":46.59691},{"citycode":"0469","adcode":"230505","name":"\u632f\u5174\u4e2d\u8def\u8857\u9053","level":"street","center_N":0,"center_J":0,"center_lng":131.340238,"center_lat":46.597404},{"citycode":"0469","adcode":"230505","name":"\u96c6\u8d24\u8def\u8857\u9053","level":"street","center_N":0,"center_J":0,"center_lng":131.252128,"center_lat":46.763784},{"citycode":"0469","adcode":"230505","name":"\u4e1c\u8363\u8857\u9053","level":"street","center_N":0,"center_J":0,"center_lng":131.267233,"center_lat":46.767992},{"citycode":"0469","adcode":"230505","name":"\u632f\u5174\u8def\u8857\u9053","level":"street","center_N":0,"center_J":0,"center_lng":131.332626,"center_lat":46.59499}]