[{"citycode":"0458","adcode":"230704","name":"\u4e1c\u5361\u7ecf\u8425\u6797\u573a","level":"street","center_N":0,"center_J":0,"center_lng":128.433168,"center_lat":48.25374},{"citycode":"0458","adcode":"230704","name":"\u6c38\u9752\u7ecf\u8425\u6797\u573a","level":"street","center_N":0,"center_J":0,"center_lng":128.668444,"center_lat":48.12048},{"citycode":"0458","adcode":"230704","name":"\u78a7\u4e91\u7ecf\u8425\u6797\u573a","level":"street","center_N":0,"center_J":0,"center_lng":128.764267,"center_lat":48.13473},{"citycode":"0458","adcode":"230704","name":"\u4e2d\u5fc3\u7ecf\u8425\u6797\u573a","level":"street","center_N":0,"center_J":0,"center_lng":128.739541,"center_lat":47.880552},{"citycode":"0458","adcode":"230704","name":"\u9e21\u722a\u6cb3\u7ecf\u8425\u6797\u573a","level":"street","center_N":0,"center_J":0,"center_lng":128.280311,"center_lat":48.086903},{"citycode":"0458","adcode":"230704","name":"\u5e7f\u5ddd\u7ecf\u8425\u6797\u573a","level":"street","center_N":0,"center_J":0,"center_lng":128.759663,"center_lat":48.05434},{"citycode":"0458","adcode":"230704","name":"\u7eff\u6e90\u7ecf\u8425\u6797\u573a","level":"street","center_N":0,"center_J":0,"center_lng":128.299358,"center_lat":47.97176},{"citycode":"0458","adcode":"230704","name":"\u53cc\u5b50\u6cb3\u8857\u9053","level":"street","center_N":0,"center_J":0,"center_lng":128.826024,"center_lat":47.843219},{"citycode":"0458","adcode":"230704","name":"\u4e09\u5408\u7ecf\u8425\u6797\u573a","level":"street","center_N":0,"center_J":0,"center_lng":128.526731,"center_lat":48.03936},{"citycode":"0458","adcode":"230704","name":"\u677e\u56ed\u7ecf\u8425\u6797\u573a","level":"street","center_N":0,"center_J":0,"center_lng":128.529307,"center_lat":48.329342},{"citycode":"0458","adcode":"230704","name":"\u671d\u9633\u7ecf\u8425\u6797\u573a","level":"street","center_N":0,"center_J":0,"center_lng":128.841392,"center_lat":47.87272},{"citycode":"0458","adcode":"230704","name":"\u94c1\u6797\u8857\u9053","level":"street","center_N":0,"center_J":0,"center_lng":128.833447,"center_lat":47.864419},{"citycode":"0458","adcode":"230704","name":"\u53cb\u8c0a\u7ecf\u8425\u6797\u573a","level":"street","center_N":0,"center_J":0,"center_lng":128.682823,"center_lat":48.295678},{"citycode":"0458","adcode":"230704","name":"\u53cb\u597d\u8857\u9053","level":"street","center_N":0,"center_J":0,"center_lng":128.838646,"center_lat":47.852096}]