[{"citycode":"0556","adcode":"340803","name":"\u9f99\u5c71\u8def\u8857\u9053","level":"street","center_N":0,"center_J":0,"center_lng":117.040462,"center_lat":30.513903},{"citycode":"0556","adcode":"340803","name":"\u6d77\u53e3\u9547","level":"street","center_N":0,"center_J":0,"center_lng":116.957417,"center_lat":30.482347},{"citycode":"0556","adcode":"340803","name":"\u77f3\u5316\u8def\u8857\u9053","level":"street","center_N":0,"center_J":0,"center_lng":117.050432,"center_lat":30.526818},{"citycode":"0556","adcode":"340803","name":"\u82b1\u4ead\u8857\u9053","level":"street","center_N":0,"center_J":0,"center_lng":117.045805,"center_lat":30.533425},{"citycode":"0556","adcode":"340803","name":"\u5fb7\u5bbd\u8def\u8857\u9053","level":"street","center_N":0,"center_J":0,"center_lng":117.027388,"center_lat":30.505771},{"citycode":"0556","adcode":"340803","name":"\u5c71\u53e3\u4e61","level":"street","center_N":0,"center_J":0,"center_lng":116.931435,"center_lat":30.531014},{"citycode":"0556","adcode":"340803","name":"\u96c6\u8d24\u8def\u8857\u9053","level":"street","center_N":0,"center_J":0,"center_lng":117.042934,"center_lat":30.524886},{"citycode":"0556","adcode":"340803","name":"\u5341\u91cc\u94fa\u4e61","level":"street","center_N":0,"center_J":0,"center_lng":117.022162,"center_lat":30.556683}]