[{"citycode":"0559","adcode":"341004","name":"\u6d3d\u820d\u4e61","level":"street","center_N":0,"center_J":0,"center_lng":118.208844,"center_lat":29.941947},{"citycode":"0559","adcode":"341004","name":"\u5ca9\u5bfa\u9547","level":"street","center_N":0,"center_J":0,"center_lng":118.338964,"center_lat":29.825998},{"citycode":"0559","adcode":"341004","name":"\u897f\u6eaa\u5357\u9547","level":"street","center_N":0,"center_J":0,"center_lng":118.289797,"center_lat":29.831252},{"citycode":"0559","adcode":"341004","name":"\u5448\u574e\u9547","level":"street","center_N":0,"center_J":0,"center_lng":118.279198,"center_lat":29.915093},{"citycode":"0559","adcode":"341004","name":"\u5fbd\u5dde\u8857\u9053","level":"street","center_N":0,"center_J":0,"center_lng":118.346266,"center_lat":29.820485},{"citycode":"0559","adcode":"341004","name":"\u5bcc\u6eaa\u4e61","level":"street","center_N":0,"center_J":0,"center_lng":118.223847,"center_lat":29.997102},{"citycode":"0559","adcode":"341004","name":"\u6768\u6751\u4e61","level":"street","center_N":0,"center_J":0,"center_lng":118.177161,"center_lat":29.978081},{"citycode":"0559","adcode":"341004","name":"\u6b59\u53bf\u7279\u79cd\u7ecf\u6d4e\u6797\u573a","level":"street","center_N":0,"center_J":0,"center_lng":118.352303,"center_lat":29.821402},{"citycode":"0559","adcode":"341004","name":"\u6f5c\u53e3\u9547","level":"street","center_N":0,"center_J":0,"center_lng":118.307062,"center_lat":29.863599}]