[{"citycode":"0532","adcode":"370213","name":"\u632f\u534e\u8def\u8857\u9053","level":"street","center_N":0,"center_J":0,"center_lng":120.386917,"center_lat":36.170461},{"citycode":"0532","adcode":"370213","name":"\u864e\u5c71\u8def\u8857\u9053","level":"street","center_N":0,"center_J":0,"center_lng":120.417394,"center_lat":36.176735},{"citycode":"0532","adcode":"370213","name":"\u697c\u5c71\u540e\u8857\u9053","level":"street","center_N":0,"center_J":0,"center_lng":120.394341,"center_lat":36.220469},{"citycode":"0532","adcode":"370213","name":"\u4e5d\u6c34\u8def\u8857\u9053","level":"street","center_N":0,"center_J":0,"center_lng":120.466257,"center_lat":36.171565},{"citycode":"0532","adcode":"370213","name":"\u6e58\u6f6d\u8def\u8857\u9053","level":"street","center_N":0,"center_J":0,"center_lng":120.414878,"center_lat":36.21446},{"citycode":"0532","adcode":"370213","name":"\u6d6e\u5c71\u8def\u8857\u9053","level":"street","center_N":0,"center_J":0,"center_lng":120.418502,"center_lat":36.142543},{"citycode":"0532","adcode":"370213","name":"\u6c38\u6e05\u8def\u8857\u9053","level":"street","center_N":0,"center_J":0,"center_lng":120.399697,"center_lat":36.201065},{"citycode":"0532","adcode":"370213","name":"\u6c38\u6e05\u8def\u8857\u9053","level":"street","center_N":0,"center_J":0,"center_lng":120.402276,"center_lat":36.173324},{"citycode":"0532","adcode":"370213","name":"\u5174\u57ce\u8def\u8857\u9053","level":"street","center_N":0,"center_J":0,"center_lng":120.386356,"center_lat":36.192789},{"citycode":"0532","adcode":"370213","name":"\u6c38\u5b89\u8def\u8857\u9053","level":"street","center_N":0,"center_J":0,"center_lng":120.388701,"center_lat":36.182298},{"citycode":"0532","adcode":"370213","name":"\u5174\u534e\u8def\u8857\u9053","level":"street","center_N":0,"center_J":0,"center_lng":120.388646,"center_lat":36.182278},{"citycode":"0532","adcode":"370213","name":"\u5a04\u5c71\u8857\u9053","level":"street","center_N":0,"center_J":0,"center_lng":120.391969,"center_lat":36.212972},{"citycode":"0532","adcode":"370213","name":"\u674e\u6751\u8857\u9053","level":"street","center_N":0,"center_J":0,"center_lng":120.422944,"center_lat":36.165609}]