[{"citycode":"0852","adcode":"520303","name":"\u5927\u8fde\u8def\u8857\u9053","level":"street","center_N":0,"center_J":0,"center_lng":106.945665,"center_lat":27.71214},{"citycode":"0852","adcode":"520303","name":"\u677e\u6797\u9547","level":"street","center_N":0,"center_J":0,"center_lng":106.71598,"center_lat":27.72093},{"citycode":"0852","adcode":"520303","name":"\u829d\u9ebb\u9547","level":"street","center_N":0,"center_J":0,"center_lng":106.65685,"center_lat":27.88307},{"citycode":"0852","adcode":"520303","name":"\u9ad8\u576a\u9547","level":"street","center_N":0,"center_J":0,"center_lng":106.90863,"center_lat":27.816731},{"citycode":"0852","adcode":"520303","name":"\u8463\u516c\u5bfa\u9547","level":"street","center_N":0,"center_J":0,"center_lng":106.924967,"center_lat":27.764817},{"citycode":"0852","adcode":"520303","name":"\u6c99\u6e7e\u9547","level":"street","center_N":0,"center_J":0,"center_lng":106.81613,"center_lat":27.865519},{"citycode":"0852","adcode":"520303","name":"\u6bdb\u77f3\u9547","level":"street","center_N":0,"center_J":0,"center_lng":106.732283,"center_lat":27.81288},{"citycode":"0852","adcode":"520303","name":"\u9ad8\u6865\u9547","level":"street","center_N":0,"center_J":0,"center_lng":106.908974,"center_lat":27.701882},{"citycode":"0852","adcode":"520303","name":"\u6d17\u9a6c\u8def\u8857\u9053","level":"street","center_N":0,"center_J":0,"center_lng":106.914397,"center_lat":27.699536},{"citycode":"0852","adcode":"520303","name":"\u5c71\u76c6\u9547","level":"street","center_N":0,"center_J":0,"center_lng":106.66955,"center_lat":27.929411},{"citycode":"0852","adcode":"520303","name":"\u5317\u4eac\u8def\u8857\u9053","level":"street","center_N":0,"center_J":0,"center_lng":106.94425,"center_lat":27.701911},{"citycode":"0852","adcode":"520303","name":"\u4e0a\u6d77\u8def\u8857\u9053","level":"street","center_N":0,"center_J":0,"center_lng":106.931107,"center_lat":27.708837},{"citycode":"0852","adcode":"520303","name":"\u56e2\u6cfd\u9547","level":"street","center_N":0,"center_J":0,"center_lng":107.08585,"center_lat":27.805991},{"citycode":"0852","adcode":"520303","name":"\u6cd7\u6e21\u9547","level":"street","center_N":0,"center_J":0,"center_lng":106.93706,"center_lat":27.914205},{"citycode":"0852","adcode":"520303","name":"\u677f\u6865\u9547","level":"street","center_N":0,"center_J":0,"center_lng":106.913793,"center_lat":27.971459}]